City_ID,City,Country,Lat,Lng,Max Temp,Humidity,Cloudiness,Wind Speed,Current Description
0,Lata,PT,40.1629,-8.3327,41.07,87,37,1.07,scattered clouds
1,Kirakira,SB,-10.4544,161.9205,84.02,73,94,13.6,light rain
2,Khatanga,RU,71.9667,102.5,-31.22,100,35,6.89,scattered clouds
3,Kilindoni,TZ,-7.9139,39.6668,79.95,77,97,7.09,overcast clouds
4,Turukhansk,RU,65.8167,87.9833,-16.46,79,100,7.85,overcast clouds
5,College,US,64.8569,-147.8028,-8.93,76,40,0.0,haze
6,Faanui,PF,-16.4833,-151.75,80.82,72,18,14.41,light rain
7,Mahebourg,MU,-20.4081,57.7,78.26,94,75,20.71,moderate rain
8,Avarua,CK,-21.2078,-159.775,78.85,89,75,6.91,light rain
9,East London,ZA,-33.0153,27.9116,77.7,83,70,16.4,broken clouds
10,Bahia Honda,CU,22.9036,-83.1592,71.6,80,26,7.87,scattered clouds
11,Rikitea,PF,-23.1203,-134.9692,78.12,69,79,2.57,broken clouds
12,Jesup,US,31.6074,-81.8854,69.94,78,100,0.0,overcast clouds
13,Valparaiso,CL,-33.0393,-71.6273,68.23,88,0,8.05,clear sky
14,Kollam,IN,8.8833,76.6,70.92,78,10,11.99,clear sky
15,Lompoc,US,34.6391,-120.4579,59.14,66,20,12.66,few clouds
16,Busselton,AU,-33.65,115.3333,67.42,54,8,15.35,clear sky
17,Coihaique,CL,-45.5752,-72.0662,84.81,20,0,0.0,clear sky
18,Bluff,NZ,-46.6,168.3333,63.68,67,23,2.98,few clouds
19,Castro,BR,-24.7911,-50.0119,62.29,93,93,1.61,moderate rain
20,Chifeng,CN,42.2683,118.9636,6.89,85,4,3.02,clear sky
21,Jamestown,US,42.097,-79.2353,35.24,60,100,6.91,mist
22,Vila Franca Do Campo,PT,37.7167,-25.4333,52.21,79,21,4.63,few clouds
23,Alekseyevka,RU,50.6309,38.6903,34.09,91,100,18.45,snow
24,Bereda,ES,43.2686,-7.5406,36.14,100,83,2.17,broken clouds
25,Ribeira Grande,PT,38.5167,-28.7,53.78,85,9,5.99,clear sky
26,Cape Town,ZA,-33.9258,18.4232,69.1,82,20,2.3,few clouds
27,Upernavik,GL,72.7868,-56.1549,-16.53,71,100,4.74,overcast clouds
28,Hermanus,ZA,-34.4187,19.2345,68.81,88,30,5.01,scattered clouds
29,Victoria,HK,22.2855,114.1577,59.25,78,50,11.01,scattered clouds
30,Port Lincoln,AU,-34.7333,135.8667,61.77,56,100,15.5,overcast clouds
31,Carnarvon,AU,-24.8667,113.6333,83.35,59,18,4.97,few clouds
32,Saldanha,ZA,-33.0117,17.9442,68.05,98,50,6.44,scattered clouds
33,Kapaa,US,22.0752,-159.319,80.92,72,20,8.05,few clouds
34,Bredasdorp,ZA,-34.5322,20.0403,69.44,80,35,5.64,scattered clouds
35,Pevek,RU,69.7008,170.3133,-28.62,100,100,6.6,overcast clouds
36,Norman Wells,CA,65.282,-126.8329,-3.96,84,75,0.0,broken clouds
37,Port Alfred,ZA,-33.5906,26.891,75.18,80,100,5.44,overcast clouds
38,Gouyave,GD,12.1646,-61.7296,75.97,83,20,13.8,few clouds
39,Punta Arenas,CL,-53.15,-70.9167,66.31,52,0,19.57,clear sky
40,Arcata,US,40.8665,-124.0828,45.25,95,100,6.91,mist
41,Mar Del Plata,AR,-38.0023,-57.5575,73.42,90,100,20.0,light rain
42,Constitucion,CL,-35.3333,-72.4167,58.62,86,10,6.51,clear sky
43,Lorengau,PG,-2.0226,147.2712,83.66,72,95,9.31,overcast clouds
44,Barrow,US,71.2906,-156.7887,-2.18,78,100,20.71,overcast clouds
45,Akureyri,IS,65.6835,-18.0878,15.73,92,75,0.0,light snow
46,Port Elizabeth,ZA,-33.918,25.5701,79.11,85,100,1.99,overcast clouds
47,Hailar,CN,49.2,119.7,-12.14,99,98,2.33,overcast clouds
48,Venezuela,VE,8.0,-66.0,85.01,36,45,9.55,scattered clouds
49,Uvinza,TZ,-5.1036,30.3911,66.31,92,100,1.3,overcast clouds
50,Vaini,TO,-21.2,-175.2,86.16,74,75,8.05,broken clouds
51,Luderitz,NA,-26.6481,15.1594,65.88,86,11,9.08,few clouds
52,Tamiahua,MX,21.2667,-97.45,72.55,87,67,7.7,broken clouds
53,Kimbe,PG,-5.5502,150.1429,79.16,85,100,5.19,light rain
54,Cidreira,BR,-30.1811,-50.2056,74.12,88,100,13.06,overcast clouds
55,Codrington,AU,-38.2667,141.9667,60.78,49,95,15.17,overcast clouds
56,Kaitangata,NZ,-46.2817,169.8464,68.34,67,18,7.27,few clouds
57,Cacoal,BR,-11.4386,-61.4472,71.33,98,100,3.06,moderate rain
58,Kiunga,PG,-6.1219,141.2906,80.65,80,99,4.32,overcast clouds
59,Ushuaia,AR,-54.8,-68.3,60.46,55,20,21.85,few clouds
60,Sitka,US,57.0531,-135.33,39.09,75,100,13.8,light rain
61,Mataura,NZ,-46.1927,168.8643,77.63,38,7,2.95,clear sky
62,Cherskiy,RU,68.75,161.3,-44.82,99,100,3.76,overcast clouds
63,Gelemso,ET,8.8167,40.5167,55.89,46,54,4.47,broken clouds
64,Arraial Do Cabo,BR,-22.9661,-42.0278,76.96,78,0,12.66,clear sky
65,Bud,US,39.447,-86.1758,41.02,96,100,15.23,moderate rain
66,Tuktoyaktuk,CA,69.4541,-133.0374,8.6,85,100,2.3,light snow
67,Chabahar,IR,25.2919,60.643,71.22,63,77,11.65,broken clouds
68,New Norfolk,AU,-42.7826,147.0587,57.92,45,42,3.0,scattered clouds
69,Pemba,MZ,-12.974,40.5178,79.5,89,20,4.61,light rain
70,Czersk,PL,53.7959,17.9765,32.47,84,100,3.85,light snow
71,Sao Sebastiao,BR,-23.76,-45.4097,75.85,91,76,2.01,broken clouds
72,Tura,IN,25.5198,90.2201,50.72,68,0,3.62,clear sky
73,Albany,US,42.6001,-73.9662,40.68,80,100,1.99,overcast clouds
74,Severo-Kurilsk,RU,50.6789,156.125,16.34,60,100,27.29,light snow
75,Vardo,NO,70.3705,31.1107,31.98,86,100,23.02,overcast clouds
76,Brits,ZA,-25.6347,27.7802,74.17,59,85,4.83,overcast clouds
77,Changji,CN,44.0167,87.3167,-6.81,84,75,2.24,fog
78,Lagoa,PT,39.05,-27.9833,55.76,68,3,7.23,clear sky
79,Hithadhoo,MV,-0.6,73.0833,81.28,74,18,7.36,few clouds
80,San Patricio,US,28.017,-97.5169,82.49,31,39,8.5,scattered clouds
81,Kodiak,US,57.79,-152.4072,27.91,80,75,3.44,broken clouds
82,Sisimiut,GL,66.9395,-53.6735,-2.99,65,97,10.4,overcast clouds
83,Bambous Virieux,MU,-20.3428,57.7575,78.22,94,75,20.71,moderate rain
84,Abu Samrah,SY,35.3029,37.1841,47.84,85,1,4.56,clear sky
85,Kahului,US,20.8947,-156.47,86.02,56,20,9.22,few clouds
86,Golyshmanovo,RU,56.3979,68.3728,11.07,91,92,7.87,overcast clouds
87,Gorgan,IR,36.8387,54.4348,30.16,93,0,0.0,clear sky
88,Puerto Ayora,EC,-0.7393,-90.3518,76.55,93,83,3.0,broken clouds
89,Coquimbo,CL,-29.9533,-71.3436,64.13,82,40,13.8,scattered clouds
90,Tasiilaq,GL,65.6145,-37.6368,6.96,80,100,5.32,overcast clouds
91,Sorland,NO,67.667,12.6934,35.46,82,100,9.6,overcast clouds
92,Otautau,NZ,-46.15,168.0,78.04,32,18,0.51,few clouds
93,Mahibadhoo,MV,3.7833,72.9667,80.13,80,74,14.63,broken clouds
94,Scarborough,GB,54.2797,-0.4044,31.91,84,37,3.0,scattered clouds
95,Copiapo,CL,-27.3667,-70.3333,64.09,51,0,6.13,clear sky
96,Mirnyy,RU,62.5353,113.9611,-50.64,100,98,1.19,overcast clouds
97,Souillac,MU,-20.5167,57.5167,77.38,94,75,20.71,light rain
98,Sawtell,AU,-30.3833,153.1,84.18,47,31,9.22,scattered clouds
99,Deniliquin,AU,-35.5333,144.9667,68.0,35,0,17.72,clear sky
100,Sao Felix Do Xingu,BR,-6.6447,-51.995,70.5,99,100,0.87,light rain
101,Talnakh,RU,69.4865,88.3972,-28.19,84,98,4.68,overcast clouds
102,Longyearbyen,SJ,78.2186,15.6401,10.24,67,0,10.36,clear sky
103,Butaritari,KI,3.0707,172.7902,81.0,78,18,14.74,light rain
104,Vryburg,ZA,-26.9566,24.7284,71.73,46,7,8.61,clear sky
105,Sawakin,SD,19.1059,37.3321,71.94,67,88,11.48,overcast clouds
106,Yellowknife,CA,62.456,-114.3525,21.72,100,100,13.8,light snow
107,Rassvet,RU,46.8333,40.75,34.12,86,99,12.8,overcast clouds
108,Dikson,RU,73.5069,80.5464,-22.58,84,100,6.02,overcast clouds
109,Ende,ID,-8.8432,121.6623,81.32,78,97,1.39,overcast clouds
110,Hobart,AU,-42.8794,147.3294,58.26,59,40,12.66,scattered clouds
111,Comodoro Rivadavia,AR,-45.8667,-67.5,75.06,60,0,9.22,clear sky
112,Nome,US,64.5011,-165.4064,-9.33,70,0,8.05,clear sky
113,Naze,JP,28.3667,129.4833,52.72,62,99,6.33,overcast clouds
114,Tuatapere,NZ,-46.1333,167.6833,73.98,43,42,0.6,scattered clouds
115,Praia,CV,14.9215,-23.5087,72.14,78,0,23.02,clear sky
116,Ngunguru,NZ,-35.6167,174.5,72.63,62,6,5.39,clear sky
117,Betsiamites,CA,48.9413,-68.646,33.89,79,100,12.41,overcast clouds
118,Kungurtug,RU,50.5994,97.5228,-22.83,96,93,1.97,overcast clouds
119,Hasaki,JP,35.7333,140.8333,39.6,58,100,16.53,overcast clouds
120,Grindavik,IS,63.8424,-22.4338,18.07,73,0,5.75,clear sky
121,Pacific Grove,US,36.6177,-121.9166,56.34,71,0,7.0,clear sky
122,Sao Jose Da Coroa Grande,BR,-8.8978,-35.1478,77.22,85,29,9.06,scattered clouds
123,Galesong,ID,-5.3166,119.3661,75.22,77,89,7.36,overcast clouds
124,Pabrade,LT,55.0,25.7833,35.26,96,100,16.82,overcast clouds
125,Lazarev,RU,52.225,141.5131,-29.02,97,35,2.95,scattered clouds
126,Saint George,US,37.1041,-113.5841,48.43,44,0,8.01,clear sky
127,Port Hardy,CA,50.6996,-127.4199,39.38,93,75,8.05,light rain
128,Ust-Omchug,RU,61.15,149.6333,-32.08,98,98,6.13,overcast clouds
129,Vysotsk,RU,60.6288,28.5705,32.92,98,100,8.5,overcast clouds
130,Atuona,PF,-9.8,-139.0333,78.22,78,25,18.25,scattered clouds
131,Komyshnya,UA,50.1859,33.684,45.59,89,100,14.67,overcast clouds
132,Shubarkuduk,KZ,49.1447,56.4872,8.87,78,28,8.55,scattered clouds
133,Rio Grande,BR,-32.035,-52.0986,75.31,74,45,16.06,scattered clouds
134,Baltiysk,RU,54.6538,19.911,38.44,73,100,13.65,overcast clouds
135,Bairiki,KI,1.3292,172.9752,84.2,84,75,9.22,light rain
136,Qaanaaq,GL,77.484,-69.3632,-19.97,95,100,4.99,overcast clouds
137,Entre Rios,BR,-11.9419,-38.0844,71.28,93,32,3.83,scattered clouds
138,Progreso,MX,21.2833,-89.6667,86.11,47,70,7.52,broken clouds
139,Fare,PF,-16.7,-151.0167,80.83,71,5,15.35,light rain
140,Galle,LK,6.0367,80.217,70.18,82,100,9.06,overcast clouds
141,Narsaq,GL,60.9167,-46.05,35.82,83,100,8.57,light rain
142,Belmonte,BR,-15.8631,-38.8828,76.6,84,36,5.32,scattered clouds
143,Maldonado,UY,-34.6667,-54.9167,74.59,79,94,12.73,overcast clouds
144,Ayr,GB,55.4627,-4.6339,33.78,80,40,1.14,light snow
145,Svetlogorsk,BY,52.6333,29.7333,41.59,85,49,13.0,scattered clouds
146,Isilkul,RU,54.9109,71.2728,7.47,91,52,8.32,broken clouds
147,San Cristobal,VE,7.7669,-72.225,73.58,82,64,1.72,broken clouds
148,Chulman,RU,56.8479,124.9104,-67.83,100,94,1.25,overcast clouds
149,Srednekolymsk,RU,67.45,153.6833,-28.59,99,100,5.14,overcast clouds
150,Geraldton,AU,-28.7667,114.6,81.01,54,37,5.75,scattered clouds
151,Marsh Harbour,BS,26.5412,-77.0636,73.0,64,30,9.4,scattered clouds
152,Tabou,CI,4.423,-7.3528,79.45,83,69,6.55,broken clouds
153,Honningsvag,NO,70.9821,25.9704,28.15,74,20,11.5,few clouds
154,Provideniya,RU,64.3833,-173.3,-11.09,58,20,6.71,few clouds
155,Ancud,CL,-41.8697,-73.8203,60.42,76,33,1.32,scattered clouds
156,Yarensk,RU,62.1675,49.0916,27.25,95,100,7.78,light snow
157,Caravelas,BR,-17.7125,-39.2481,75.34,87,7,4.63,clear sky
158,Lieksa,FI,63.3167,30.0167,32.52,97,100,6.4,overcast clouds
159,Port Blair,IN,11.6667,92.75,69.84,88,98,0.0,mist
160,Kununurra,AU,-15.7667,128.7333,80.58,89,75,3.44,broken clouds
161,Los Llanos De Aridane,ES,28.6585,-17.9182,59.13,80,75,12.66,broken clouds
162,Angoche,MZ,-16.2325,39.9086,77.41,85,98,4.92,overcast clouds
163,Ola,RU,59.5833,151.2833,-15.16,83,96,12.88,overcast clouds
164,The Valley,AI,18.217,-63.0578,77.14,83,40,3.44,scattered clouds
165,Lasa,IT,46.6166,10.7002,31.08,92,93,6.89,overcast clouds
166,Chokurdakh,RU,70.6333,147.9167,-35.01,100,21,6.33,few clouds
167,Baykit,RU,61.67,96.37,-45.71,100,67,1.41,broken clouds
168,Ilulissat,GL,69.2167,-51.1,-30.08,66,0,5.82,clear sky
169,Puerto Escondido,MX,15.85,-97.0667,83.23,69,40,11.5,scattered clouds
170,Herford,DE,52.1333,8.6833,35.11,81,66,15.61,broken clouds
171,Alofi,NU,-19.0595,-169.9187,85.89,74,40,10.36,light rain
172,Ushtobe,KZ,45.2514,77.9838,-1.21,90,6,4.99,clear sky
173,Ponta Do Sol,PT,32.6667,-17.1,61.43,69,54,10.25,broken clouds
174,Gornopravdinsk,RU,60.05,69.9,8.13,98,89,4.5,overcast clouds
175,Songea,TZ,-10.6833,35.65,63.5,96,100,2.86,light rain
176,Butembo,CD,0.15,29.2833,60.24,58,75,2.71,broken clouds
177,Carbonear,CA,47.7332,-53.2148,42.42,93,100,8.75,overcast clouds
178,Yanam,IN,16.7333,82.2167,63.84,95,41,1.63,scattered clouds
179,Lebu,CL,-37.6167,-73.65,59.2,82,1,8.34,clear sky
180,Berbera,SO,10.4396,45.0143,73.63,78,46,4.83,scattered clouds
181,Clyde River,CA,70.4692,-68.5914,-21.77,76,75,4.61,broken clouds
182,Guilin,CN,25.2819,110.2864,46.51,37,100,3.76,overcast clouds
183,Chuy,UY,-33.6971,-53.4616,70.43,78,67,10.0,broken clouds
184,Saint-Philippe,RE,-21.3585,55.7679,76.59,90,100,13.13,light rain
185,Nanortalik,GL,60.1432,-45.2371,27.73,77,100,14.38,light snow
186,Bela Vista,BR,-22.1089,-56.5211,74.62,81,32,2.39,scattered clouds
187,Urubicha,BO,-15.3833,-62.95,76.01,75,100,4.05,light rain
188,Rantepao,ID,-2.9701,119.8978,72.36,87,75,0.54,broken clouds
189,Nikolskoye,RU,59.7035,30.7861,33.8,98,100,9.75,snow
190,Thompson,CA,55.7435,-97.8558,15.96,86,100,0.0,overcast clouds
191,San Quintin,MX,30.4833,-115.95,57.36,56,100,7.78,overcast clouds
192,Kudahuvadhoo,MV,2.6708,72.8944,80.11,80,43,12.39,scattered clouds
193,Antofagasta,CL,-23.65,-70.4,69.08,81,15,7.7,few clouds
194,Tianpeng,CN,30.9866,103.9393,30.67,52,1,2.37,clear sky
195,Riacho De Santana,BR,-13.6092,-42.9389,70.93,72,39,6.69,scattered clouds
196,Pringsewu,ID,-5.3582,104.9744,73.92,96,100,1.59,overcast clouds
197,Odesskoye,RU,54.2111,72.9651,6.98,89,28,9.6,scattered clouds
198,Pinega,RU,64.7001,43.3936,26.94,96,100,7.85,overcast clouds
199,Fukuyama,JP,34.4833,133.3667,41.94,67,22,2.55,few clouds
200,High Level,CA,58.5169,-117.136,19.51,100,75,4.61,broken clouds
201,Mantua,IT,45.1667,10.7833,40.98,91,96,4.0,overcast clouds
202,Ambilobe,MG,-13.2,49.05,73.31,95,100,19.53,moderate rain
203,Rosarito,MX,32.3333,-117.0333,62.24,56,92,7.74,overcast clouds
204,Klaksvik,FO,62.2266,-6.589,38.32,73,96,21.43,overcast clouds
205,Hofn,IS,64.2539,-15.2082,27.61,63,42,26.28,scattered clouds
206,Sibolga,ID,1.7427,98.7792,73.89,80,91,3.47,overcast clouds
207,Teya,RU,60.3778,92.6267,-21.91,96,100,1.83,overcast clouds
208,Atar,MR,20.5169,-13.0499,65.28,37,1,8.41,clear sky
209,Gat,IL,31.61,34.7642,58.41,59,0,2.55,clear sky
210,Kruisfontein,ZA,-34.0033,24.7314,76.89,63,97,7.02,overcast clouds
211,Kavaratti,IN,10.5669,72.642,80.24,75,24,11.01,few clouds
212,Bahia Blanca,AR,-38.7196,-62.2724,70.29,91,38,12.08,scattered clouds
213,Ayan,RU,56.45,138.1667,-31.32,74,1,8.25,clear sky
214,Cabo San Lucas,MX,22.8909,-109.9124,73.71,60,20,12.66,few clouds
215,Mogadishu,SO,2.0371,45.3438,76.71,82,92,19.89,overcast clouds
216,Woodward,US,36.4337,-99.3904,49.23,57,0,14.97,clear sky
217,Hilo,US,19.7297,-155.09,82.13,80,75,12.66,broken clouds
218,Berlevag,NO,70.8578,29.0864,28.35,74,99,10.36,overcast clouds
219,Polkowice,PL,51.5039,16.0726,33.12,97,100,7.16,overcast clouds
220,Palana,RU,59.1167,159.9667,-3.05,95,99,11.48,overcast clouds
221,Witu,KE,-2.3889,40.4382,72.0,92,99,5.17,overcast clouds
222,Nago,JP,26.5881,127.9761,58.05,62,68,9.22,broken clouds
223,Belen,TR,36.4891,36.2233,39.34,100,100,2.3,fog
224,Dwarka,IN,22.2394,68.9678,67.21,52,64,8.9,broken clouds
225,Canita,PA,9.2097,-78.8811,74.07,89,33,5.35,scattered clouds
226,Umm Lajj,SA,25.0213,37.2685,70.81,40,35,6.29,scattered clouds
227,Boden,SE,65.8252,21.6886,32.0,91,83,9.75,broken clouds
228,Mackenzie,CA,55.2999,-123.1698,35.82,87,100,11.5,light rain
229,Chardara,KZ,41.2547,67.9692,11.68,90,28,4.18,scattered clouds
230,Hualmay,PE,-11.0964,-77.6139,71.4,76,76,8.95,broken clouds
231,Port Hedland,AU,-20.3167,118.5667,78.85,89,100,6.91,overcast clouds
232,Fort Nelson,CA,58.8053,-122.7002,10.94,90,75,2.3,broken clouds
233,Mount Gambier,AU,-37.8333,140.7667,61.36,46,58,12.06,broken clouds
234,Beringovskiy,RU,63.05,179.3167,-21.91,92,29,5.14,scattered clouds
235,Jaru,BR,-10.4389,-62.4664,70.23,99,100,1.68,light rain
236,Tamandare,BR,-8.7597,-35.1047,76.96,85,37,7.94,scattered clouds
237,Mana,GF,5.6592,-53.7767,74.97,87,46,7.54,scattered clouds
238,Akdagmadeni,TR,39.6603,35.8836,36.36,66,10,4.05,clear sky
239,Harlingen,US,26.1906,-97.6961,84.29,72,40,17.27,scattered clouds
240,Poum,NC,-20.2333,164.0167,80.01,70,70,13.04,broken clouds
241,Gao,ML,16.6362,1.637,66.22,14,56,10.51,broken clouds
242,Tongren,CN,27.7172,109.1853,44.13,55,100,0.49,overcast clouds
243,Kavieng,PG,-2.5744,150.7967,84.36,70,80,9.82,broken clouds
244,Egvekinot,RU,66.3167,-179.1667,-20.22,93,100,2.15,overcast clouds
245,Omboue,GA,-1.5746,9.2618,78.08,83,100,5.03,overcast clouds
246,Tilichiki,RU,60.4667,166.1,-8.72,87,100,9.46,overcast clouds
247,Aykhal,RU,66.0,111.5,-47.49,100,80,2.77,broken clouds
248,Mount Pleasant,US,32.7941,-79.8626,68.09,92,0,1.99,clear sky
249,Charters Towers,AU,-20.1,146.2667,80.87,57,1,10.63,clear sky
250,Qesarya,IL,32.5189,34.9046,54.36,69,0,7.83,clear sky
251,Kushmurun,KZ,52.4503,64.6311,-9.2,78,4,3.06,clear sky
252,Saint-Francois,FR,46.4154,3.9054,27.84,93,75,3.44,snow
253,Salalah,OM,17.0151,54.0924,73.49,73,0,2.3,clear sky
254,Arona,ES,28.0996,-16.681,58.82,68,75,14.97,broken clouds
255,Usogorsk,RU,63.4106,48.6872,24.1,96,99,7.14,overcast clouds
256,Flic En Flac,MU,-20.2742,57.3631,78.53,86,100,13.78,light rain
257,Tres Arroyos,AR,-38.3739,-60.2798,76.08,52,77,12.39,broken clouds
258,Khandyga,RU,62.6667,135.6,-59.87,99,100,1.59,overcast clouds
259,Beipiao,CN,41.7919,120.7792,14.76,58,7,3.6,clear sky
260,Rafaela,AR,-31.2503,-61.4867,82.98,45,37,9.04,scattered clouds
261,Nouadhibou,MR,20.931,-17.0347,64.38,68,74,17.27,broken clouds
262,Kiblawan,PH,6.6142,125.2367,78.46,86,93,2.73,overcast clouds
263,Beisfjord,NO,68.3751,17.5988,28.45,75,100,8.39,overcast clouds
264,Hamilton,US,39.1834,-84.5333,44.89,85,100,12.66,light rain
265,Sistranda,NO,63.7256,8.834,31.96,90,100,19.37,light snow
266,Eufaula,US,31.8913,-85.1455,71.64,86,75,4.61,broken clouds
267,Aklavik,CA,68.2191,-135.0107,-3.69,99,100,4.23,light snow
268,Avera,US,33.194,-82.5271,65.37,87,99,5.06,overcast clouds
269,Iqaluit,CA,63.7506,-68.5145,-16.31,68,0,11.5,clear sky
270,Dzaoudzi,YT,-12.7887,45.2699,82.29,74,0,10.36,clear sky
271,Atambua,ID,-9.1061,124.8925,77.9,79,100,1.92,overcast clouds
272,Blagoyevo,RU,63.3667,47.9167,25.75,96,100,7.58,overcast clouds
273,Sinjar,IQ,36.3209,41.8754,46.85,67,2,5.28,clear sky
274,Qaqortoq,GL,60.7167,-46.0333,26.17,77,100,7.54,light snow
275,Shambu,ET,9.5667,37.1,52.25,56,33,1.34,scattered clouds
276,Belomorsk,RU,64.5232,34.7668,32.99,97,100,7.96,overcast clouds
277,Georgetown,MY,5.4112,100.3354,78.73,81,20,3.44,few clouds
278,Shaoyang,CN,27.2315,111.4525,44.8,38,98,2.04,overcast clouds
279,Porto Novo,BJ,6.4965,2.6036,82.22,82,26,6.71,scattered clouds
280,Predivinsk,RU,57.0669,93.4378,-11.18,98,100,3.13,overcast clouds
281,Auki,SB,-8.7676,160.7034,82.87,78,100,8.72,moderate rain
282,Hearst,CA,49.6835,-83.6665,12.45,100,100,2.77,overcast clouds
283,Katobu,ID,-4.9408,122.5276,79.5,84,99,2.86,overcast clouds
284,Nuevitas,CU,21.5453,-77.2644,73.17,66,0,10.0,clear sky
285,Faranah,GN,10.0404,-10.7434,73.24,17,1,3.98,clear sky
286,Quatre Cocos,MU,-20.2078,57.7625,78.1,88,100,15.99,moderate rain
287,Tautira,PF,-17.7333,-149.15,80.83,73,37,15.43,scattered clouds
288,Kokopo,PG,-4.352,152.2633,84.22,66,77,9.84,broken clouds
289,Marrakesh,MA,31.6315,-8.0083,51.87,82,40,10.36,scattered clouds
290,Dudinka,RU,69.4058,86.1778,-24.97,88,100,3.98,overcast clouds
291,Durban,ZA,-29.8579,31.0292,79.92,94,61,5.99,broken clouds
292,Marsa Matruh,EG,31.3525,27.2453,52.0,87,0,6.91,clear sky
293,Xuddur,SO,4.1213,43.8894,68.23,75,97,15.79,overcast clouds
294,Airai,TL,-8.9266,125.4092,66.34,81,100,2.73,overcast clouds
295,Soyo,AO,-6.1349,12.3689,79.0,87,100,5.97,light rain
296,Tihemetsa,EE,58.1462,25.0459,31.28,99,100,8.3,snow
297,Hambantota,LK,6.1241,81.1185,73.92,66,80,14.92,broken clouds
298,Nuuk,GL,64.1835,-51.7216,18.21,79,100,10.36,light snow
299,Channel-Port Aux Basques,CA,47.5702,-59.1367,36.32,90,97,5.44,overcast clouds
300,Gamba,GA,-2.65,10.0,77.36,84,100,3.36,light rain
301,Sidi Ali,DZ,36.0998,0.4206,49.53,47,22,22.35,few clouds
302,Kutum,SD,14.2,24.6667,59.43,23,99,4.43,overcast clouds
303,Kinablangan,PH,7.6947,126.5503,80.85,78,83,4.79,broken clouds
304,Mahanje,TZ,-9.9333,35.3333,64.11,96,100,0.83,light rain
305,Saint-Paul,RE,-21.0096,55.2707,79.36,84,100,1.1,light rain
306,Katsuura,JP,35.1333,140.3,46.22,73,100,15.84,overcast clouds
307,Mackay,AU,-21.15,149.2,83.68,77,47,19.57,scattered clouds
308,Khorixas,NA,-20.3667,14.9667,72.77,65,98,11.45,overcast clouds
309,Antrim,GB,54.6667,-6.25,33.37,93,40,10.36,scattered clouds
310,Bengkulu,ID,-3.8004,102.2655,74.79,89,87,3.91,overcast clouds
311,Pimentel,PE,-6.8367,-79.9342,73.69,68,40,24.16,scattered clouds
312,Ahipara,NZ,-35.1667,173.1667,72.25,62,3,8.21,clear sky
313,Alice Springs,AU,-23.7,133.8833,81.95,44,10,12.66,clear sky
314,Alta Floresta,BR,-9.8756,-56.0861,70.3,97,100,3.96,overcast clouds
315,Cockburn Town,TC,21.4612,-71.1419,76.14,60,29,17.34,scattered clouds
316,Hervey Bay,AU,-25.2986,152.8535,81.01,67,1,8.01,clear sky
317,Neiafu,TO,-18.65,-173.9833,84.88,84,40,10.36,scattered clouds
318,Santa Isabel,BR,-23.3156,-46.2214,72.7,96,83,2.64,broken clouds
319,Bartica,GY,6.4,-58.6167,75.52,98,13,3.09,few clouds
320,Zheleznodorozhnyy,RU,55.7503,38.0042,34.32,91,99,17.74,overcast clouds
321,Sao Joao Da Barra,BR,-21.6403,-41.0511,78.89,88,0,11.34,clear sky
322,Kochi,IN,9.9399,76.2602,69.78,69,99,5.44,overcast clouds
323,Canutama,BR,-6.5339,-64.3831,71.4,99,100,1.14,overcast clouds
324,Saskylakh,RU,71.9167,114.0833,-36.69,100,54,1.7,broken clouds
325,Lafia,NG,8.4833,8.5167,78.55,21,72,4.18,broken clouds
326,Morondava,MG,-20.2833,44.2833,79.34,58,66,15.03,broken clouds
327,Esperance,AU,-33.8667,121.9,64.72,56,100,14.29,overcast clouds
328,Babstovo,RU,48.1167,132.4833,-1.89,97,100,7.72,light snow
329,Mabaruma,GY,8.2,-59.7833,69.85,88,64,3.11,broken clouds
330,Lehututu,BW,-23.9667,21.8667,73.92,51,42,5.35,scattered clouds
331,Camapua,BR,-19.5314,-54.0439,76.3,73,51,1.07,broken clouds
332,Morehead,US,37.2711,-87.1764,63.0,94,40,8.05,scattered clouds
333,Maraa,BR,-1.8333,-65.3667,72.37,96,93,2.53,overcast clouds
334,Togur,RU,58.3631,82.8265,-1.03,97,100,4.12,overcast clouds
335,Beyneu,KZ,45.3167,55.2,25.02,62,4,9.44,clear sky
336,Gigmoto,PH,13.7796,124.39,75.94,94,100,13.56,overcast clouds
337,Buchanan,LR,5.8808,-10.0467,78.69,88,97,5.37,overcast clouds
338,Barra Patuca,HN,15.8,-84.2833,77.41,83,7,14.52,light rain
339,Salaverry,PE,-8.2333,-78.9667,68.38,81,98,8.95,overcast clouds
340,Samfya,ZM,-11.3649,29.5565,63.03,95,93,2.55,light rain
341,Inta,RU,66.0317,60.1659,6.91,96,85,7.23,overcast clouds
342,Saint-Gabriel,CA,46.3001,-73.3824,37.08,77,92,9.69,overcast clouds
343,Kyra,RU,49.5776,111.9753,-19.88,78,18,10.98,few clouds
344,Biak,ID,-0.9131,122.8766,78.71,76,100,2.51,overcast clouds
345,Pokosnoye,RU,55.5258,101.0536,-42.7,100,54,1.1,broken clouds
346,Utiel,ES,39.5667,-1.2,34.68,62,34,17.31,scattered clouds
347,Rrogozhine,AL,41.0764,19.6653,55.58,74,58,16.46,light rain
348,Pandan,PH,14.0453,124.1694,75.61,94,100,16.98,overcast clouds
349,Olafsvik,IS,64.8945,-23.7142,27.37,76,71,19.77,broken clouds
350,Cabedelo,BR,-6.9811,-34.8339,75.87,83,84,11.92,broken clouds
351,Quilmana,PE,-12.95,-76.3833,71.6,77,87,1.28,overcast clouds
352,Craig,US,40.5153,-107.5464,24.75,74,100,8.05,overcast clouds
353,Half Moon Bay,US,37.4636,-122.4286,57.81,74,100,3.44,overcast clouds
354,Eresos,GR,39.1667,25.9333,60.89,76,6,28.5,clear sky
355,Saryozek,KZ,44.3583,77.9753,6.01,63,0,4.41,clear sky
356,Gopalganj,IN,26.4667,84.4333,46.76,68,0,3.44,clear sky
357,Santa Rosa,PH,14.3122,121.1114,79.11,77,73,13.78,broken clouds
358,Bethel,US,41.3712,-73.414,46.49,69,20,5.75,few clouds
359,Rawson,AR,-43.3002,-65.1023,74.82,60,49,17.87,scattered clouds
360,Mindelo,CV,16.8901,-24.9804,71.15,73,40,21.85,scattered clouds
361,Santa Flavia,IT,38.085,13.5351,55.13,61,64,8.01,broken clouds
362,Sholapur,IN,17.6833,75.9167,65.89,46,28,10.2,scattered clouds
363,Svobodnyy,RU,51.4,128.1333,-16.13,91,100,10.8,overcast clouds
364,Warri,NG,5.5167,5.75,78.3,82,11,4.07,few clouds
365,Qixia,CN,37.2975,120.8256,26.98,64,11,5.73,few clouds
366,Tiksi,RU,71.6872,128.8694,-28.68,100,97,0.47,overcast clouds
367,Liuzhou,CN,24.3126,109.3892,49.26,47,94,3.24,overcast clouds
368,Miri,MY,4.4148,114.0089,75.34,94,40,2.3,scattered clouds
369,Mankato,US,44.1636,-93.9994,31.68,97,100,12.66,overcast clouds
370,Novikovo,RU,51.1537,37.8879,35.13,93,100,19.64,snow
371,Adrar,MR,20.5022,-10.0711,63.28,35,83,8.55,broken clouds
372,Mount Isa,AU,-20.7333,139.5,87.57,45,2,6.91,clear sky
373,Vanimo,PG,-2.6741,141.3028,77.92,87,100,7.72,overcast clouds
374,Rocha,UY,-34.4833,-54.3333,68.07,85,94,8.43,overcast clouds
375,Poputnaya,RU,44.5125,41.4392,39.6,60,86,6.44,overcast clouds
376,Okato,NZ,-39.2,173.8833,70.68,59,6,4.59,clear sky
377,Tawang,IN,27.5833,91.8667,23.99,61,2,5.39,clear sky
378,Vila Velha,BR,-20.3297,-40.2925,78.94,83,75,6.91,broken clouds
379,Marawi,PH,7.9986,124.2928,71.65,91,94,1.28,overcast clouds
380,Sioux Lookout,CA,50.1001,-91.917,14.07,85,75,4.61,broken clouds
381,Hami,CN,42.8,93.45,12.13,55,0,7.72,clear sky
382,Mafeteng,LS,-29.823,27.2374,73.36,35,80,4.05,broken clouds
383,Zharkent,KZ,44.1628,80.0,4.51,76,2,2.75,clear sky
384,Batagay,RU,67.6333,134.6333,-51.66,100,99,0.89,overcast clouds
385,Kamenka,RU,51.3223,42.7678,20.98,80,8,14.74,clear sky
386,Whitehorse,CA,60.7161,-135.0538,23.77,80,75,14.97,broken clouds
387,Belyy Yar,RU,53.6039,91.3903,4.86,82,40,0.0,light snow
388,Namatanai,PG,-3.6667,152.4333,83.64,71,69,6.11,light rain
389,Shimoda,JP,34.6667,138.95,46.76,80,90,11.59,overcast clouds
390,Fortuna,US,40.5982,-124.1573,44.98,96,100,4.61,overcast clouds
391,Ahuimanu,US,21.4447,-157.8378,82.78,54,20,11.5,few clouds
392,Nianzishan,CN,47.5167,122.8833,-8.52,93,94,1.86,overcast clouds
393,Mattru,SL,7.6244,-11.8332,70.39,96,60,0.6,broken clouds
394,Vikhorevka,RU,56.1201,101.1636,-33.21,100,50,2.08,scattered clouds
395,Mandera,KE,3.9366,41.867,79.52,32,73,7.29,broken clouds
396,Ust-Kuyga,RU,70.0167,135.6,-41.1,100,97,3.69,overcast clouds
397,Ugoofaaru,MV,5.6667,73.0,81.39,72,82,20.11,broken clouds
398,Fatehabad,IN,29.5167,75.45,49.57,50,99,7.23,overcast clouds
399,Parambu,BR,-6.2111,-40.6944,73.45,67,63,1.72,broken clouds
400,Cajati,BR,-24.7361,-48.1228,72.45,96,92,2.24,overcast clouds
401,Dingle,PH,10.9995,122.6711,77.02,91,100,10.02,overcast clouds
402,Yeppoon,AU,-23.1333,150.7333,80.38,73,58,14.23,broken clouds
403,Andilamena,MG,-17.0167,48.5833,65.55,93,100,15.52,moderate rain
404,Bubaque,GW,11.2833,-15.8333,77.63,70,0,9.93,clear sky
405,Preobrazheniye,RU,42.9019,133.9064,20.05,82,83,1.95,light snow
406,Mahon,ES,39.8885,4.2658,41.56,81,0,4.61,clear sky
407,Saint-Denis,FR,48.9167,2.3333,36.37,90,100,8.05,overcast clouds
408,Sumbe,AO,-11.2061,13.8437,76.71,84,99,6.53,overcast clouds
409,Berezovyy,RU,51.6667,135.7,-22.0,90,98,2.01,overcast clouds
410,Nerja,ES,36.7585,-3.8873,46.71,67,3,11.32,clear sky
411,Sobolevo,RU,54.4299,31.8996,40.41,98,100,19.28,overcast clouds
412,Lillooet,CA,50.6856,-121.942,39.09,96,94,0.56,overcast clouds
413,Touros,BR,-5.1989,-35.4608,79.23,77,72,12.15,broken clouds
414,Paamiut,GL,61.994,-49.6678,26.65,96,100,6.98,light snow
415,Ati,TD,13.2154,18.3353,70.81,21,50,8.93,scattered clouds
416,Mandalgovi,MN,45.7625,106.2708,-8.63,73,18,13.09,few clouds
417,Hovd,MN,48.0056,91.6419,1.87,72,79,1.05,broken clouds
418,Kiruna,SE,67.8557,20.2251,7.72,92,100,2.3,overcast clouds
419,Anadyr,RU,64.75,177.4833,-19.7,76,40,8.95,scattered clouds
420,Arlit,NE,18.7369,7.3853,61.52,12,40,6.26,scattered clouds
421,Sao Geraldo Do Araguaia,BR,-6.4006,-48.555,70.81,97,100,2.62,overcast clouds
422,Ghanzi,BW,-21.5667,21.7833,71.2,63,88,5.73,overcast clouds
423,Skjervoy,NO,70.0311,20.9714,24.8,68,100,16.17,light snow
424,Fairmont,US,39.4851,-80.1426,43.97,87,85,0.49,overcast clouds
425,Ormara,PK,25.2088,64.6357,67.87,56,91,4.61,overcast clouds
426,Pangnirtung,CA,66.1451,-65.7125,-11.2,53,0,0.0,clear sky
427,Pascagoula,US,30.3658,-88.5561,74.12,82,75,4.61,broken clouds
428,Chara,RU,56.9064,118.2631,-39.53,88,100,1.45,overcast clouds
429,Salisbury,GB,51.0693,-1.7957,34.65,94,6,8.05,clear sky
430,Voznesenskoye,RU,54.89,42.7569,22.44,85,35,13.27,scattered clouds
431,Palizada,MX,18.25,-92.0833,75.51,85,47,2.48,scattered clouds
432,Moron,AR,-34.6534,-58.6198,79.95,78,100,9.46,overcast clouds
433,Catamarca,AR,-28.4696,-65.7852,80.58,54,53,5.73,broken clouds
434,Sao Filipe,CV,14.8961,-24.4956,74.88,69,1,12.28,clear sky
435,Vuktyl,RU,63.8567,57.3094,17.62,93,100,9.31,overcast clouds
436,Coldwater,US,41.9403,-85.0005,39.15,75,100,3.44,overcast clouds
437,Tromso,NO,69.6496,18.957,29.37,64,0,13.8,clear sky
438,Devils Lake,US,48.1128,-98.8651,17.71,93,100,3.44,overcast clouds
439,Tahta,EG,26.7693,31.5021,54.99,36,0,4.81,clear sky
440,Portobelo,PA,9.55,-79.65,78.04,82,44,8.52,scattered clouds
441,Kidal,ML,18.4411,1.4078,65.57,15,51,5.19,broken clouds
442,Bosaso,SO,11.2842,49.1816,71.78,77,16,2.66,few clouds
443,Wajima,JP,37.4,136.9,32.68,86,20,4.61,few clouds
444,Dukat,RU,62.55,155.55,-35.41,97,100,5.77,overcast clouds
445,Portoferraio,IT,42.8115,10.3146,50.09,66,66,14.16,broken clouds
446,Baglan,AF,36.1307,68.7083,27.99,90,100,2.08,overcast clouds
447,Jiangyan,CN,32.5061,120.1428,34.07,57,23,4.92,few clouds
448,Ostrovnoy,RU,68.0531,39.5131,26.8,88,100,13.02,overcast clouds
449,Cairns,AU,-16.9167,145.7667,83.1,81,75,5.75,broken clouds
450,Erenhot,CN,43.6475,111.9767,3.38,81,84,20.98,broken clouds
451,Lubyany,RU,56.0378,51.4,-4.83,97,82,4.54,broken clouds
452,Nyurba,RU,63.2842,118.3319,-69.88,100,68,1.39,broken clouds
453,Faya,SA,18.3851,42.4509,52.32,65,48,3.13,scattered clouds
454,Tanhacu,BR,-14.0214,-41.2481,70.77,84,69,4.59,broken clouds
455,Kuryk,KZ,43.2,51.65,30.16,44,6,10.18,clear sky
456,Ulladulla,AU,-35.35,150.4667,58.96,79,100,14.23,overcast clouds
457,Ipixuna,BR,-1.7625,-48.8043,71.29,98,100,2.35,light rain
458,Gezing,AT,47.9178,13.1299,32.25,91,75,4.61,light snow
459,Torbay,CA,47.6666,-52.7314,41.58,92,100,12.66,overcast clouds
460,Vanavara,RU,60.34,102.2797,-57.57,100,65,1.43,broken clouds
461,Imeni Poliny Osipenko,RU,52.4201,136.4853,-33.74,99,98,3.58,overcast clouds
462,Nouakchott,MR,18.0858,-15.9785,71.53,36,15,11.65,few clouds
463,Izhma,RU,65.0083,53.9113,15.96,95,98,7.34,overcast clouds
464,Khalilabad,IN,26.775,83.0736,43.81,76,0,1.97,clear sky
465,Tombouctou,ML,20.0,-3.0,68.16,16,99,6.38,overcast clouds
466,Dakoro,NE,14.5106,6.765,64.76,19,0,10.4,clear sky
467,Lavrentiya,RU,65.5833,-171.0,-21.32,92,19,7.78,few clouds
468,Gardner,US,42.5751,-71.9981,41.45,76,75,11.5,broken clouds
469,Deputatskiy,RU,69.3,139.9,-26.63,100,72,1.23,broken clouds
470,Alvorada,BR,-12.48,-49.1247,71.24,94,97,3.31,moderate rain
471,Pisco,PE,-13.7,-76.2167,73.45,83,94,8.05,mist
472,Soldotna,US,60.4878,-151.0583,23.07,92,0,4.61,light snow
473,Dubai,AE,25.2582,55.3047,71.53,60,40,16.11,scattered clouds
474,Leningradskiy,RU,69.3833,178.4167,-20.56,98,100,23.44,light snow
475,Okhotsk,RU,59.3833,143.3,-14.8,79,100,8.43,overcast clouds
476,Labuhan,ID,-6.8844,112.2051,77.99,87,100,7.72,overcast clouds
477,Palatka,US,29.6486,-81.6376,66.97,73,63,3.62,broken clouds
478,Llanes,ES,43.4198,-4.7549,48.88,75,100,18.77,overcast clouds
479,Te Anau,NZ,-45.4167,167.7167,74.98,37,36,4.45,scattered clouds
480,Udachnyy,RU,66.4167,112.4,-56.6,100,75,2.57,broken clouds
481,Ukiah,US,39.1502,-123.2078,50.43,93,100,0.0,overcast clouds
482,Ogbomosho,NG,8.133,4.25,75.38,45,4,4.05,clear sky
483,Ruidoso,US,33.3317,-105.673,36.97,52,73,20.71,broken clouds
484,Edremit,TR,39.5961,27.0244,56.46,81,16,13.65,few clouds
485,Vitim,RU,59.4511,112.5578,-33.66,91,100,4.83,overcast clouds
486,Mehamn,NO,71.0357,27.8492,28.31,80,40,4.61,scattered clouds
487,North Platte,US,41.1239,-100.7654,22.89,92,100,21.85,snow
488,Pedernales,DO,18.0384,-71.744,74.44,69,0,8.23,clear sky
489,Kapuskasing,CA,49.4169,-82.4331,14.09,85,100,6.91,overcast clouds
490,Byron Bay,AU,-28.65,153.6167,80.71,54,4,7.45,clear sky
491,Port Macquarie,AU,-31.4333,152.9167,81.9,59,93,9.4,overcast clouds
492,Casablanca,MA,33.5928,-7.6192,57.33,71,79,11.01,light rain
493,Clyde,US,41.3042,-82.9752,40.17,82,99,7.85,overcast clouds
494,Seljord,NO,59.4894,8.634,25.41,95,99,3.33,overcast clouds
495,Imbituba,BR,-28.24,-48.6703,72.91,93,95,3.74,overcast clouds
496,Cam Ranh,VN,11.9214,109.1591,75.16,64,40,14.97,scattered clouds
497,Monroe,US,43.1501,-77.6831,40.01,89,100,11.5,overcast clouds
498,North Bend,US,43.4065,-124.2243,46.08,99,100,9.22,overcast clouds
499,Hun,LY,29.1268,15.9477,56.07,25,56,9.37,broken clouds
500,Kotido,UG,2.9806,34.1331,73.08,29,22,9.22,few clouds
501,Urumqi,CN,43.801,87.6005,-10.25,84,75,4.47,fog
502,Mildura,AU,-34.2,142.15,64.08,47,0,18.1,clear sky
503,Townsville,AU,-19.25,146.8,83.28,65,40,10.36,scattered clouds
504,Morgan City,US,29.6994,-91.2068,73.99,88,20,16.11,few clouds
505,Nioro,GM,13.35,-15.75,79.2,14,0,8.3,clear sky
506,Torrijos,ES,39.9819,-4.2835,40.06,84,5,9.28,clear sky
507,Shigony,RU,53.3875,48.6777,-0.96,99,16,3.76,few clouds
508,Padang,ID,-0.9492,100.3543,73.45,86,100,4.14,overcast clouds
509,Chok Chai,TH,14.7284,102.1652,55.78,76,16,3.09,few clouds
510,Dhuburi,IN,26.0333,89.9667,53.64,64,0,5.26,clear sky
511,Nieves,PH,15.3274,120.9485,74.71,79,59,2.86,broken clouds
512,Bilibino,RU,68.0546,166.4372,-35.25,98,100,1.79,overcast clouds
513,Veracruz,MX,19.3333,-96.6667,75.87,68,17,3.09,few clouds
514,Baghdad,IQ,33.3406,44.4009,49.91,100,0,8.05,clear sky
515,Payakumbuh,ID,-0.2202,100.6308,69.37,97,100,2.19,overcast clouds
516,Usinsk,RU,65.9939,57.5281,9.46,96,97,10.16,overcast clouds
517,Sept-Iles,CA,50.2001,-66.3821,34.32,86,100,11.5,light snow
518,Mandiana,GN,10.6333,-8.6833,74.39,15,12,4.92,few clouds
519,Tirat Karmel,IL,32.7617,34.9719,57.69,70,0,5.61,clear sky
520,Kargasok,RU,59.0556,80.8572,0.9,97,100,6.13,overcast clouds
521,Isangel,VU,-19.55,169.2667,77.11,94,100,2.3,heavy intensity rain
522,Safranbolu,TR,41.2508,32.6942,43.41,79,1,3.06,clear sky
523,Peniche,PT,39.3558,-9.3811,49.1,87,72,19.91,broken clouds
524,Shetpe,KZ,44.1667,52.1167,26.65,56,0,6.13,clear sky
525,San Carlos Del Zulia,VE,9.0,-71.9135,76.91,73,56,1.21,broken clouds
526,Kindu,CD,-2.95,25.95,69.75,97,96,2.66,overcast clouds
527,San Jose De Sisa,PE,-6.6167,-76.6915,82.92,97,83,1.45,broken clouds
528,Bathsheba,BB,13.2167,-59.5167,77.61,73,20,16.11,few clouds
529,Kandrian,PG,-6.2167,149.55,86.38,65,96,17.52,overcast clouds
530,Fukue,JP,32.6881,128.8419,44.96,70,0,6.91,clear sky
531,Riyadh,SA,24.6877,46.7219,46.54,59,72,10.69,broken clouds
532,Ploemeur,FR,47.7333,-3.4333,43.95,88,20,6.91,few clouds
533,Khandbari,NP,27.3747,87.2039,44.17,67,6,3.49,clear sky
534,Huarmey,PE,-10.0681,-78.1522,71.46,77,83,10.69,broken clouds
535,Muros,ES,42.7762,-9.0603,40.08,95,53,8.1,broken clouds
536,Cap-Aux-Meules,CA,47.3821,-61.8597,32.05,100,100,4.61,overcast clouds
537,Cap Malheureux,MU,-19.9842,57.6142,78.48,87,100,8.99,light rain
538,Modasa,IN,23.4667,73.3,57.15,34,42,9.82,scattered clouds
539,Dongsheng,CN,39.8161,109.9776,8.04,75,10,20.2,clear sky
540,Adana,TR,36.985,35.2881,54.12,87,75,5.75,broken clouds
541,Anloga,GH,5.7947,0.8973,80.74,81,77,9.01,broken clouds
542,Komsomolskiy,UZ,40.4272,71.7189,16.52,79,96,4.61,mist
543,Fernie,CA,49.5,-115.0687,37.49,97,100,3.44,overcast clouds
544,Rawlins,US,41.7911,-107.2387,8.71,93,80,10.13,broken clouds
545,Sao Gabriel Da Cachoeira,BR,-0.1303,-67.0892,74.23,86,100,2.06,overcast clouds
546,Kirkwall,GB,58.9848,-2.9587,36.97,74,99,9.22,overcast clouds
547,Yumen,CN,40.2833,97.2,6.89,73,39,14.45,scattered clouds
548,Beloha,MG,-25.1667,45.05,72.18,82,2,10.4,clear sky
549,Tucurui,BR,-3.7661,-49.6725,71.15,97,100,0.74,overcast clouds
550,Rio Gallegos,AR,-51.6226,-69.2181,73.45,33,40,19.57,scattered clouds
551,Panama City,PA,8.9936,-79.5197,82.35,79,40,6.91,scattered clouds
552,Esso,RU,55.9333,158.7,-1.34,94,100,7.09,overcast clouds
553,Fort Saint James,CA,54.4333,-124.25,30.33,81,100,5.48,overcast clouds
554,Mutsu,JP,41.2894,141.2169,28.44,60,22,2.84,few clouds
555,Ouallam,NE,14.3188,2.0866,70.61,15,5,9.86,clear sky
556,Lakefield,US,43.6775,-95.1717,28.24,96,100,16.11,mist
557,Hashtrud,IR,37.4779,47.0508,21.52,87,30,3.47,scattered clouds
558,Providencia,MX,28.7167,-111.5833,68.41,42,45,9.55,scattered clouds
559,Twentynine Palms,US,34.1356,-116.0542,56.97,25,27,5.5,scattered clouds
560,Outjo,NA,-20.1167,16.15,69.03,78,97,3.02,overcast clouds
561,Muncar,ID,-8.4333,114.3333,79.12,85,100,5.26,overcast clouds
562,Kirensk,RU,57.7853,108.1119,-28.01,94,100,4.63,overcast clouds
563,Eureka,US,40.8021,-124.1637,45.25,95,100,4.0,overcast clouds
564,Meiganga,CM,6.5167,14.3,66.54,33,100,4.25,overcast clouds
565,Makakilo City,US,21.3469,-158.0858,81.61,58,0,11.5,clear sky
566,Conceicao Do Araguaia,BR,-8.2578,-49.2647,72.1,94,100,2.15,overcast clouds
567,Yako,BF,12.9667,-2.2667,69.78,16,0,8.84,clear sky
568,Nador,MA,35.174,-2.9287,57.45,44,20,18.41,few clouds
569,Heihe,CN,50.2441,127.4902,-15.61,96,100,12.1,light snow
570,Wakkanai,JP,45.4094,141.6739,13.98,79,75,9.22,broken clouds
571,Omsukchan,RU,62.5333,155.8,-33.21,95,100,5.77,overcast clouds
572,Stornoway,GB,58.2093,-6.3865,31.96,88,40,13.8,scattered clouds
573,Kamaishi,JP,39.2667,141.8833,32.94,57,21,2.28,few clouds
574,General Pico,AR,-35.6566,-63.7568,86.79,35,53,15.59,broken clouds
575,Leshukonskoye,RU,64.8989,45.7622,23.04,95,100,7.31,overcast clouds
576,Valdemarpils,LV,57.3707,22.5919,33.3,98,100,11.39,snow
577,San Jose,US,37.3394,-121.895,58.32,59,75,4.61,broken clouds
578,Santa Maria,BR,-29.6842,-53.8069,79.9,74,20,18.41,few clouds
579,Coos Bay,US,43.3665,-124.2179,46.15,99,100,9.22,overcast clouds
580,Aswan,EG,24.0934,32.907,58.3,51,0,0.0,clear sky
581,Carballo,ES,43.213,-8.691,49.87,85,85,3.06,overcast clouds
582,Westport,US,41.1415,-73.3579,48.18,67,0,10.36,clear sky
583,Elk City,US,35.412,-99.4043,57.18,28,0,17.27,clear sky
584,Katherine,AU,-14.4667,132.2667,80.92,83,100,5.75,overcast clouds
585,Ondjiva,AO,-17.0667,15.7333,66.72,89,100,2.86,light rain
586,Venado Tuerto,AR,-33.7456,-61.9688,79.77,52,53,9.71,broken clouds
587,Roebourne,AU,-20.7833,117.1333,82.42,70,73,6.89,broken clouds
588,Vostok,RU,46.4856,135.8833,0.72,78,100,3.53,overcast clouds
589,Mortka,RU,59.3322,66.0214,12.13,95,74,5.97,broken clouds
590,Upington,ZA,-28.4478,21.2561,73.78,78,20,4.61,few clouds
591,Imatra,FI,61.1719,28.7524,33.13,96,100,9.35,overcast clouds
592,Ternate,ID,0.8,127.4,81.05,77,87,4.59,overcast clouds
593,Chengde,CN,40.9725,117.9361,7.75,90,7,2.26,clear sky
594,Sindor,RU,62.8629,51.8905,22.1,96,100,6.46,light snow
595,Salinas,US,36.6777,-121.6555,57.29,64,0,5.75,clear sky
596,Maniitsoq,GL,65.4167,-52.9,13.64,52,100,5.82,overcast clouds
597,Dumas,US,35.8656,-101.9732,42.94,36,0,19.57,clear sky
598,Dhangadhi,NP,28.7079,80.5961,47.3,71,18,1.83,few clouds
599,Bridlington,GB,54.0831,-0.1919,33.89,77,36,15.05,scattered clouds
600,Hobyo,SO,5.3505,48.5268,76.05,78,46,19.93,scattered clouds
601,Meulaboh,ID,4.1363,96.1285,72.03,83,91,3.89,overcast clouds
602,Lac Du Bonnet,CA,50.2536,-96.0612,7.81,98,95,4.16,overcast clouds
603,Pangkalanbuun,ID,-2.6833,111.6167,75.09,93,100,2.57,overcast clouds
604,Kapoeta,SS,4.7717,33.5903,79.93,25,71,2.57,broken clouds
605,Phalodi,IN,27.1333,72.3667,54.55,17,21,11.03,few clouds
606,Muravlenko,RU,63.7898,74.523,0.55,97,87,9.26,overcast clouds
607,Vangaindrano,MG,-23.35,47.6,74.61,88,49,5.5,light rain
608,Nichinan,JP,31.6,131.3667,38.88,58,1,5.21,clear sky
609,Mpanda,TZ,-6.3655,31.0409,65.14,94,100,1.05,overcast clouds
610,Sishui,CN,35.6489,117.2758,29.1,70,54,3.27,broken clouds
611,The Pas,CA,53.8251,-101.2541,6.82,85,0,9.22,clear sky
612,Murgab,TM,37.4966,61.9714,24.67,100,100,2.3,mist
613,Vilhena,BR,-12.7406,-60.1458,68.22,94,75,5.75,broken clouds
614,Del Rio,US,29.3627,-100.8968,77.02,14,0,20.71,clear sky
615,Pleasanton,US,37.6624,-121.8747,56.64,66,100,3.0,overcast clouds
616,Bintulu,MY,3.1667,113.0333,75.61,100,20,3.44,few clouds
617,Port Augusta,AU,-32.5,137.7667,67.6,37,0,12.66,clear sky
618,Kemi,FI,65.8596,24.8228,31.77,93,100,11.5,overcast clouds
619,Caxito,AO,-8.5785,13.6643,74.14,92,90,2.35,overcast clouds
620,Acarau,BR,-2.8856,-40.12,78.44,81,57,10.96,broken clouds
621,Kerema,PG,-7.9631,145.7785,78.28,80,100,0.18,overcast clouds
622,Pingliang,CN,35.5392,106.6861,18.39,51,8,5.32,clear sky
623,Manokwari,ID,-0.8667,134.0833,78.84,76,100,1.97,overcast clouds
624,Narasannapeta,IN,18.4167,84.05,67.37,91,36,4.52,scattered clouds
625,Palmeirais,BR,-5.9778,-43.0633,73.27,90,97,0.81,moderate rain
626,Mariental,NA,-24.6333,17.9667,78.75,48,96,11.54,overcast clouds
627,Waingapu,ID,-9.6567,120.2641,80.96,74,100,4.65,overcast clouds
628,Aksu,CN,41.1231,80.2644,-1.28,90,5,3.89,clear sky
629,Bay Roberts,CA,47.5999,-53.2648,42.33,95,100,5.01,overcast clouds
630,Petropavlovsk-Kamchatskiy,RU,53.0452,158.6483,12.79,62,75,22.37,light shower snow
631,Onufriyivka,UA,48.9072,33.4487,45.39,90,77,14.88,broken clouds
632,Kieta,PG,-6.2167,155.6333,84.24,76,93,11.18,light rain
633,Rocky Mountain House,CA,52.3668,-114.9188,19.51,79,76,3.44,broken clouds
634,Qui Nhon,VN,13.7667,109.2333,69.48,87,100,16.58,overcast clouds
635,Xique-Xique,BR,-10.8218,-42.7263,80.76,61,99,6.98,overcast clouds
636,Bilma,NE,18.6853,12.9164,61.75,19,19,5.06,few clouds
637,Port Keats,AU,-14.25,129.55,82.47,82,100,9.93,overcast clouds
638,Puerto Del Rosario,ES,28.5004,-13.8627,64.15,68,20,19.57,few clouds
639,Malindi,KE,-3.2175,40.1191,76.96,83,100,8.25,overcast clouds
640,Launceston,AU,-41.45,147.1667,64.62,42,4,12.66,clear sky
641,Pahrump,US,36.2083,-115.9839,50.45,37,2,4.0,clear sky
642,Port-Gentil,GA,-0.7193,8.7815,80.56,89,20,3.44,few clouds
643,Cedar Falls,US,42.5278,-92.4455,35.19,88,100,8.99,snow
644,Vestmanna,FO,62.1564,-7.1664,36.52,87,75,20.71,light intensity drizzle rain
645,Plettenberg Bay,ZA,-34.0527,23.3716,71.85,89,70,6.96,broken clouds
646,Covington,US,39.0837,-84.5086,45.61,85,100,1.99,moderate rain
647,Burnie,AU,-41.0667,145.9167,61.95,51,11,2.75,few clouds
648,Chinteni,RO,46.8667,23.5333,40.75,87,75,6.91,broken clouds
649,Vao,NC,-22.6667,167.4833,74.62,72,76,23.58,broken clouds
650,Karratha,AU,-20.7377,116.8463,83.12,68,64,8.66,light rain
651,Veraval,IN,20.9,70.3667,66.29,37,2,9.24,clear sky
652,Derzhavinsk,KZ,51.1,66.3167,-7.8,80,6,4.47,clear sky
653,Itarema,BR,-2.9248,-39.9167,78.49,80,62,10.25,broken clouds
654,Beresti-Sat,RO,46.1,27.8833,48.04,88,77,10.22,broken clouds
655,Monrovia,LR,6.3005,-10.7969,74.97,89,99,6.98,overcast clouds
656,Voyvozh,RU,62.892,54.9635,15.78,95,100,6.78,light snow
657,Gobabis,NA,-22.45,18.9667,70.23,64,98,7.18,light rain
658,Mayo,US,38.8876,-76.5119,50.5,67,37,1.99,scattered clouds
659,Cancun,MX,21.1743,-86.8466,82.06,69,39,14.41,scattered clouds
660,Gorontalo,ID,0.5412,123.0595,79.88,84,84,2.75,broken clouds
661,Rebrikha,RU,53.0733,82.3408,6.78,82,100,12.75,overcast clouds
662,Perpignan,FR,42.75,2.75,38.84,56,20,11.5,few clouds
663,Fomboni,KM,-12.28,43.7425,81.84,69,100,6.53,overcast clouds
664,Ponta Delgada,PT,37.7333,-25.6667,52.52,76,20,6.91,few clouds
665,Pecanha,BR,-18.5486,-42.5569,65.32,98,24,3.87,few clouds
666,Chenzhou,CN,25.8,113.0333,44.24,63,100,1.88,overcast clouds
667,Tual,ID,-5.6667,132.75,83.37,74,99,16.6,overcast clouds
668,Baruun-Urt,MN,46.6806,113.2792,-9.53,71,95,16.31,overcast clouds
669,Pizarro,CO,4.9533,-77.366,75.7,89,83,4.88,moderate rain
670,Baiyin,CN,36.5583,104.2081,14.47,41,0,1.34,clear sky
671,Senanga,ZM,-16.1167,23.2667,67.51,95,100,4.65,light rain
672,Sarankhola,BD,22.3082,89.7897,57.49,50,0,6.08,clear sky
673,Lander,US,42.833,-108.7307,34.39,75,6,5.12,clear sky
674,Canico,PT,32.6333,-16.85,61.72,77,40,21.85,light rain
675,Terrace,CA,54.5163,-128.6035,37.31,93,75,14.97,broken clouds
676,Chapada Dos Guimaraes,BR,-15.4606,-55.7497,69.46,60,65,5.88,broken clouds
677,Pombas,CV,17.1503,-25.0201,69.58,77,6,16.8,clear sky
678,Oriximina,BR,-1.7656,-55.8661,71.82,97,100,2.75,overcast clouds
679,Mecca,SA,21.4267,39.8261,71.17,46,4,1.7,clear sky
680,Sur,OM,22.5667,59.5289,70.99,75,90,13.73,overcast clouds
681,Chimbote,PE,-9.0853,-78.5783,69.62,79,96,7.2,overcast clouds
682,Bardiyah,LY,31.7561,25.0865,57.02,61,0,13.2,clear sky
683,Gawler,AU,-34.6,138.7333,67.96,45,0,11.72,clear sky
684,Kita,ML,13.0349,-9.4895,73.38,14,0,4.59,clear sky
685,Sherbrooke,CA,45.4001,-71.8991,32.18,88,20,5.75,mist
686,Cadereyta,MX,25.5833,-99.9833,78.17,32,12,6.76,few clouds
687,Oranjestad,AW,12.524,-70.027,78.91,87,20,17.27,few clouds
688,Ostrovskoye,RU,57.8057,42.2433,22.68,91,91,11.65,overcast clouds
689,Northam,GB,51.0333,-4.2167,40.6,90,81,13.85,broken clouds
690,Acapulco,MX,16.8634,-99.8901,78.19,67,64,9.73,broken clouds
691,Manaskent,RU,42.7275,47.6785,40.42,93,100,0.0,mist
692,Nsoko,SZ,-27.0333,31.95,78.06,97,95,4.5,overcast clouds
693,Birao,CF,10.2849,22.7882,69.66,23,22,7.23,few clouds
694,Itaituba,BR,-4.2761,-55.9836,71.19,98,94,2.15,overcast clouds
695,Samarai,PG,-10.6167,150.6667,83.16,74,100,8.25,overcast clouds
696,Trincomalee,LK,8.5711,81.2335,77.63,62,28,13.13,scattered clouds
697,Jaque,PA,7.5175,-78.1703,77.43,85,96,0.98,overcast clouds
698,Russell,US,32.3502,-85.1999,67.41,88,93,7.11,overcast clouds
699,Birjand,IR,32.8663,59.2211,34.27,100,75,4.61,broken clouds
700,Guerrero Negro,MX,27.9769,-114.0611,59.54,54,99,11.92,overcast clouds
701,Marzuq,YE,14.4,46.4667,58.24,56,12,4.54,few clouds
702,El Vendrell,ES,41.2167,1.5333,44.85,81,69,11.01,broken clouds
703,Kasongo,CD,-4.45,26.6667,67.14,98,81,1.83,broken clouds
704,Hargeysa,SO,9.56,44.065,58.51,59,51,11.65,broken clouds
705,Yulara,AU,-25.2406,130.9889,80.17,35,0,18.54,clear sky
706,Novoorsk,RU,51.381,58.9813,-4.41,82,57,3.62,broken clouds
707,Batagay-Alyta,RU,67.8006,130.4114,-32.76,93,92,5.14,overcast clouds
708,Kempele,FI,64.9131,25.5034,28.42,93,0,6.91,clear sky
709,Pakhtakoron,TJ,40.1571,68.7466,20.21,79,100,3.65,overcast clouds
710,Yantongshan,CN,43.2919,126.0094,15.17,94,100,6.31,overcast clouds
711,Pontes E Lacerda,BR,-15.2261,-59.3353,73.04,91,99,1.61,light rain
712,La Ronge,CA,55.1001,-105.2842,19.65,93,100,5.75,overcast clouds
713,Horsham,GB,51.064,-0.3272,35.26,86,0,3.44,clear sky
714,Petrov Val,RU,50.1434,45.2096,14.52,96,58,6.55,broken clouds
715,Loikaw,MM,19.6742,97.2094,53.15,80,98,3.27,overcast clouds
716,Orocue,CO,4.7912,-71.3354,84.15,39,8,5.44,clear sky
717,Cayenne,GF,4.9333,-52.3333,73.44,94,100,2.3,light rain
